,City,Country,Cloudiness,Date,Humidity,Latitude,Longitude,Max Temp,Wind Speed
0,Moron,HT,100,1570072666,77,18.56,-74.26,80.23,2.68
1,Provideniya,RU,75,1570072760,80,64.42,-173.23,39.2,15.66
2,Praia da Vitoria,PT,75,1570073228,82,38.73,-27.07,64.4,8.43
3,Kaeo,NZ,36,1570072680,80,-35.1,173.78,61.0,10.78
4,Saint-Leu,RE,0,1570073230,64,-21.15,55.28,75.2,4.7
5,Hobart,AU,0,1570073170,31,-42.88,147.33,81.0,10.29
6,Mar del Plata,AR,0,1570073233,37,-46.43,-67.52,46.48,7.56
7,Nantucket,US,90,1570073193,87,41.28,-70.1,57.99,16.11
8,Kloulklubed,PW,75,1570073046,70,7.04,134.26,86.0,9.17
9,Hilo,US,90,1570073237,69,19.71,-155.08,80.6,8.05
10,Ushuaia,AR,40,1570073238,65,-54.81,-68.31,41.0,29.97
11,Dwarka,IN,40,1570073239,69,28.58,77.04,86.0,3.49
12,Saint George,GR,20,1570072660,93,39.45,22.34,60.8,2.28
13,Punta Arenas,CL,0,1570073242,77,-53.16,-70.91,41.0,28.86
14,Nouadhibou,MR,36,1570073243,51,20.93,-17.03,80.6,13.87
15,Honiara,SB,20,1570073244,59,-9.43,159.96,89.6,13.87
16,Saskylakh,RU,4,1570073246,76,71.97,114.09,19.39,0.87
17,Yellowknife,CA,75,1570073247,61,62.45,-114.38,48.2,10.29
18,Kargopol,RU,96,1570073248,89,61.51,38.95,35.84,9.24
19,Rikitea,PF,90,1570072985,76,-23.12,-134.97,64.39,9.8
20,Bridlington,GB,0,1570073251,86,54.08,-0.19,42.01,4.7
21,Jamestown,AU,12,1570073167,19,-33.21,138.6,83.45,1.45
22,Albany,US,90,1570073220,62,42.65,-73.75,53.01,11.41
23,Senekal,ZA,0,1570073255,65,-28.32,27.62,43.85,7.2
24,Ilulissat,GL,0,1570073256,31,69.22,-51.1,48.2,27.51
25,Bredasdorp,ZA,36,1570073257,87,-34.53,20.04,51.8,5.82
26,Yerbogachen,RU,100,1570072709,95,61.28,108.01,33.77,11.92
27,Pacific Grove,US,1,1570073259,45,36.62,-121.92,64.99,4.7
28,Esperance,AU,67,1570073261,64,-33.86,121.89,68.0,12.75
29,Busselton,AU,100,1570073262,74,-33.64,115.35,68.0,1.99
30,Port Lincoln,AU,28,1570073264,84,-34.72,135.86,57.41,11.52
31,Port Elizabeth,US,90,1570073265,57,39.31,-74.98,81.0,10.29
32,Mount Isa,AU,0,1570073267,18,-20.73,139.49,91.4,12.75
33,Adrar,DZ,0,1570073268,12,27.87,-0.29,78.8,14.99
34,Bouza,NE,44,1570073269,48,14.42,6.04,81.76,8.79
35,Hostotipaquillo,MX,100,1570073270,93,21.06,-104.05,69.01,4.0
36,Vila Franca do Campo,PT,75,1570073272,73,37.72,-25.43,71.01,2.24
37,Wawa,NG,91,1570073273,94,9.9,4.41,72.08,3.87
38,Bluff,AU,0,1570073274,29,-23.58,149.07,80.75,13.24
39,Castro,CL,0,1570073275,94,-42.48,-73.76,35.6,6.93
40,Faanui,PF,9,1570073277,78,-16.48,-151.75,77.78,14.76
41,Leningradskiy,RU,100,1570073278,92,69.38,178.42,29.11,12.82
42,Puerto Ayora,EC,47,1570073279,92,-0.74,-90.35,66.99,1.99
43,Astana,KZ,0,1570072422,86,51.13,71.43,30.2,6.71
44,Beisfjord,NO,0,1570073282,69,68.38,17.6,37.99,10.29
45,Beringovskiy,RU,95,1570073283,64,63.05,179.32,36.45,3.09
46,Marawi,PH,14,1570073285,78,8.0,124.29,84.99,5.99
47,Kodiak,US,90,1570073286,87,39.95,-94.76,60.8,10.29
48,Cape Town,ZA,40,1570073122,93,-33.93,18.42,59.0,3.36
49,Tiksi,RU,100,1570073287,87,71.64,128.87,24.57,27.38
50,Upernavik,GL,100,1570073290,68,72.79,-56.15,37.19,10.69
51,Longyearbyen,NO,75,1570073222,74,78.22,15.63,35.6,18.34
52,Pimentel,BR,0,1570073292,88,-3.7,-45.5,73.37,2.86
53,Bambous Virieux,MU,75,1570073293,94,-20.34,57.76,73.4,8.05
54,New Norfolk,AU,0,1570073294,31,-42.78,147.06,82.0,10.29
55,Vaini,IN,40,1570073296,83,15.34,74.49,75.2,0.65
56,San Patricio,PY,100,1570073291,94,-26.98,-56.83,67.31,6.38
57,Hermanus,ZA,0,1570073298,89,-34.42,19.24,57.0,6.89
58,Ponta do Sol,BR,0,1570073299,51,-20.63,-46.0,71.37,3.04
59,Bethel,US,90,1570073301,81,60.79,-161.76,50.0,8.05
60,Atuona,PF,24,1570073302,72,-9.8,-139.03,80.09,8.16
61,Uribia,CO,88,1570073303,84,11.71,-72.27,78.88,2.62
62,Haysville,US,90,1570073305,87,37.56,-97.35,62.01,10.29
63,North Platte,US,1,1570073306,87,41.12,-100.77,44.6,4.7
64,Anadyr,RU,75,1570073307,55,64.73,177.51,32.0,6.71
65,Airai,TL,0,1570073308,32,-8.93,125.41,93.57,3.29
66,Morlaix,FR,90,1570073310,87,48.58,-3.83,52.0,6.93
67,Boma,GH,100,1570073311,99,7.08,-2.17,71.81,2.8
68,Manitouwadge,CA,60,1570073312,89,49.12,-85.84,30.1,4.56
69,Kruisfontein,ZA,100,1570073314,74,-34.0,24.73,58.29,16.28
70,Qaanaaq,GL,26,1570073315,71,77.48,-69.36,21.19,4.09
71,Ust-Nera,RU,48,1570073316,61,64.57,143.24,16.73,3.62
72,Masterton,NZ,100,1570073318,56,-40.95,175.66,53.01,5.01
73,Moen,BE,0,1570073319,86,50.77,3.4,48.99,6.93
74,Maragogi,BR,48,1570073320,92,-9.01,-35.22,70.71,4.12
75,Tomohon,ID,40,1570073321,62,1.33,124.84,87.8,9.17
76,Kapaa,US,40,1570073323,74,22.08,-159.32,86.0,17.22
77,Ribeira Grande,PT,100,1570073324,68,38.52,-28.7,69.54,8.68
78,Tapolca,HU,0,1570073325,76,46.88,17.44,50.0,19.46
79,Berlevag,NO,75,1570073327,74,70.86,29.09,37.4,16.11
80,Ngunguru,NZ,100,1570073328,60,-35.62,174.5,61.0,11.99
81,Victoria,BN,75,1570073329,66,5.28,115.24,87.8,2.24
82,Mataura,NZ,86,1570073330,91,-46.19,168.86,46.99,5.99
83,Clyde River,CA,90,1570073332,98,70.47,-68.59,32.0,3.36
84,Hambantota,LK,40,1570073333,100,6.12,81.12,75.2,2.24
85,Sao Filipe,CV,0,1570073334,86,14.9,-24.5,77.39,10.92
86,Hanna,CA,4,1570073265,93,51.64,-111.93,28.99,3.0
87,Nikolskoye,RU,90,1570073337,93,59.7,30.79,41.0,4.47
88,Barrow,AR,0,1570073338,78,-38.31,-60.23,36.2,7.31
89,Cockburn Town,TC,11,1570073211,68,21.46,-71.14,82.98,3.76
90,Qaqortoq,GL,100,1570073341,32,60.72,-46.03,51.8,32.21
91,Ramnagar,IN,65,1570073342,80,27.17,84.33,79.91,6.38
92,Cabo San Lucas,MX,40,1570073339,73,22.89,-109.91,80.01,4.7
93,Norman Wells,CA,90,1570073345,93,65.28,-126.83,44.6,3.36
94,Bahia Honda,CU,0,1570073346,78,22.9,-83.16,81.78,16.89
95,Kahului,US,40,1570073065,62,20.89,-156.47,84.2,16.11
96,Hami,CN,0,1570073348,21,42.84,93.51,59.94,7.02
97,Chuy,UY,97,1570073350,76,-33.69,-53.46,56.88,18.07
98,Elmira,US,90,1570073351,100,42.09,-76.81,55.0,4.7
99,Pokaran,IN,63,1570073352,60,26.93,71.92,84.82,11.86
100,Viedma,AR,0,1570073343,62,-40.81,-62.99,39.91,10.02
101,Hithadhoo,MV,95,1570073355,80,-0.6,73.08,82.35,16.51
102,Slavyanka,RU,100,1570073356,68,42.86,131.39,70.47,4.27
103,Norton,US,90,1570073357,87,41.97,-71.19,55.99,4.7
104,Patitirion,GR,0,1570073358,83,39.15,23.87,71.6,12.75
105,Andilamena,MG,59,1570073360,90,-17.01,48.57,61.71,8.43
106,Kaitangata,NZ,81,1570073361,62,-46.28,169.85,51.01,5.01
107,Xuddur,SO,51,1570073363,78,4.12,43.89,72.65,10.36
108,Butaritari,KI,100,1570073364,59,3.07,172.79,84.87,2.44
109,Nobres,BR,70,1570073365,85,-14.72,-56.34,73.93,3.98
110,Gazanjyk,TM,0,1570073366,22,39.24,55.52,58.11,9.04
111,Livani,LV,100,1570073368,94,56.35,26.18,44.36,4.88
112,Cassilandia,BR,100,1570073369,90,-19.11,-51.73,70.6,6.04
113,Isangel,VU,75,1570073370,54,-19.55,169.27,80.6,13.87
114,Kavieng,PG,41,1570073372,69,-2.57,150.8,83.06,1.16
115,Lompoc,US,1,1570073146,71,34.64,-120.46,63.0,3.36
116,Luderitz,NA,0,1570073374,93,-26.65,15.16,55.23,24.07
117,Vardo,US,90,1570073375,57,39.62,-77.74,80.6,4.7
118,Durban,CA,69,1570073376,84,51.93,-101.44,35.34,2.48
119,Avarua,CK,33,1570073378,61,-21.21,-159.78,77.0,9.17
120,Sao Joao da Barra,BR,5,1570073379,97,-21.64,-41.05,65.27,1.54
121,Carnarvon,ZA,61,1570073381,31,-30.97,22.13,49.65,2.46
122,Bandar-e Lengeh,IR,0,1570073382,74,26.56,54.88,86.0,6.93
123,Toora-Khem,RU,0,1570073383,38,52.47,96.11,34.92,3.53
124,Nuuk,GL,19,1570073384,42,64.17,-51.74,48.2,13.87
125,Ahipara,NZ,100,1570073212,84,-35.17,173.16,60.01,15.5
126,Ancud,CL,0,1570073387,75,-41.87,-73.83,35.6,6.93
127,Santiago del Estero,AR,0,1570073165,38,-27.8,-64.26,55.34,7.16
128,Khatanga,RU,0,1570073389,68,71.98,102.47,23.82,8.46
129,Barrhead,CA,90,1570073391,85,54.12,-114.4,46.4,6.93
130,Rio Grande,BR,100,1570073095,90,-32.03,-52.1,59.85,11.3
131,Impfondo,CD,8,1570073393,94,1.62,18.06,69.41,2.42
132,Thompson,CA,5,1570073264,79,55.74,-97.86,28.4,4.52
133,Tuktoyaktuk,CA,90,1570073396,93,69.44,-133.03,35.6,14.99
134,Hauterive,CA,1,1570073397,80,49.18,-68.27,39.2,6.93
135,Port Blair,IN,48,1570073209,66,11.67,92.75,82.17,1.61
136,Joshimath,IN,0,1570073400,59,30.57,79.57,55.68,1.63
137,Wasilla,US,90,1570073401,70,61.58,-149.44,50.0,3.36
138,Tapes,BR,100,1570073402,90,-30.67,-51.4,62.7,12.3
139,Gualeguay,AR,0,1570073404,75,-33.15,-59.31,49.4,11.99
140,Pasni,PK,92,1570073405,71,25.26,63.48,83.36,3.89
141,Bambui,CM,100,1570073407,93,6.01,10.23,62.0,0.69
142,San Rafael,AR,51,1570073408,25,-34.61,-68.33,49.32,8.75
143,Kiunga,PG,91,1570073409,64,-6.12,141.3,85.83,4.18
144,Vao,EE,94,1570073410,85,59.1,26.19,41.98,4.7
145,Usinsk,RU,93,1570073412,93,66.0,57.56,39.44,13.06
146,Dubbo,AU,40,1570073413,16,-32.25,148.6,84.2,8.05
147,Boden,SE,20,1570073414,92,65.83,21.69,30.2,6.93
148,San Jose,HN,75,1570073222,88,14.25,-87.96,73.4,8.05
149,Abu Samrah,SY,0,1570073417,92,35.3,37.18,64.35,7.83
150,Saint-Augustin,CA,20,1570073418,86,45.63,-73.98,46.0,2.24
151,Yulara,AU,15,1570073419,7,-25.24,130.99,96.8,6.93
152,Georgetown,GY,99,1570073421,94,6.8,-58.16,77.0,4.7
153,Praia,BR,0,1570073423,52,-20.25,-43.81,68.0,5.82
154,Ixtapa,MX,90,1570073424,94,20.71,-105.21,79.0,3.36
155,Kavaratti,IN,20,1570073425,74,10.57,72.64,84.2,4.7
156,Shamary,RU,100,1570073427,90,57.34,58.22,48.39,14.23
157,Fortuna,US,1,1570073428,81,40.6,-124.16,53.01,6.93
158,Greenfield,US,1,1570073273,66,42.59,-72.6,57.99,8.05
159,Torbay,CA,90,1570073430,93,47.66,-52.73,41.0,9.17
160,Trelew,AR,0,1570073432,23,-43.25,-65.31,48.33,7.43
161,Xai-Xai,MZ,0,1570073433,92,-25.04,33.64,57.93,2.42
162,Ukiah,US,1,1570073275,38,39.15,-123.21,60.01,4.7
163,Yuzhnyy,RU,66,1570073435,75,53.54,39.45,50.24,10.65
164,Laguna,BZ,75,1570073437,94,16.17,-88.94,78.8,1.5
165,Kerman,IR,20,1570073438,20,30.29,57.06,66.2,4.7
166,Karla,EE,90,1570073439,93,59.37,24.93,46.0,12.75
167,Nyurba,RU,100,1570073441,69,63.29,118.35,33.61,6.44
168,Taguatinga,BR,0,1570073442,46,-15.83,-48.06,73.4,2.24
169,Lebu,ET,75,1570073443,82,8.96,38.73,57.2,4.7
170,Okhotsk,RU,0,1570073223,38,59.36,143.24,36.54,19.53
171,Bonthe,SL,100,1570073446,89,7.53,-12.5,76.76,7.36
172,East London,ZA,0,1570073447,87,-33.02,27.91,55.4,2.24
173,Coihaique,CL,0,1570073448,80,-45.58,-72.07,33.8,1.28
174,Saldanha,PT,100,1570073450,62,41.42,-6.55,55.57,1.3
175,Rocha,UY,83,1570073451,82,-34.48,-54.34,49.38,10.83
176,Nome,US,1,1570073452,88,30.04,-94.42,82.99,3.47
177,Henties Bay,NA,0,1570073454,93,-22.12,14.28,57.23,7.87
178,Samsun,TR,75,1570073456,93,41.29,36.33,59.0,4.7
179,Namibe,AO,53,1570073457,82,-15.19,12.15,64.93,6.58
180,Mahebourg,MU,75,1570073458,94,-20.41,57.7,73.4,8.05
181,Santa Rosa,AR,0,1570073460,43,-36.62,-64.29,49.16,13.33
182,Severo-Kurilsk,RU,100,1570073461,96,50.68,156.12,48.01,14.41
183,Hamilton,CA,90,1570073309,87,43.26,-79.87,55.0,18.34
184,Vaitape,PF,9,1570073463,78,-16.52,-151.75,77.78,14.76
185,Sitka,US,89,1570073465,94,37.17,-99.65,57.0,10.0
186,Port Alfred,ZA,0,1570073466,87,-33.59,26.89,63.0,11.01
187,Nargana,PA,88,1570073468,83,9.44,-78.59,79.22,10.56
188,Sioux Lookout,CA,90,1570073360,77,50.1,-91.92,39.2,4.7
189,Khash,IR,70,1570073470,45,28.22,61.21,65.2,4.32
190,Lorengau,PG,87,1570073471,75,-2.02,147.27,82.91,2.28
191,Tuatapere,NZ,67,1570073473,91,-46.13,167.69,46.99,7.0
192,Whitehorse,CA,20,1570073474,60,60.72,-135.06,43.0,3.36
193,Jacareacanga,BR,32,1570073475,90,-6.22,-57.76,73.52,2.23
194,Penzance,GB,100,1570073477,78,50.12,-5.53,55.99,15.99
195,Shenjiamen,CN,1,1570073478,78,29.96,122.3,77.26,5.28
196,Umm Kaddadah,SD,94,1570073479,65,13.6,26.69,79.01,11.79
197,Iquique,CL,90,1570073481,77,-20.22,-70.14,60.8,5.82
198,Paita,PE,74,1570073482,91,-5.09,-81.11,63.99,14.58
199,Stonehaven,GB,90,1570073483,87,56.96,-2.22,45.0,10.29
200,Upata,VE,86,1570073484,95,8.02,-62.41,71.5,4.7
201,Yala,TH,20,1570073486,79,6.54,101.28,84.2,5.82
202,Guerrero Negro,MX,0,1570073487,79,27.97,-114.04,66.59,13.89
203,Ucluelet,CA,100,1570073258,91,48.94,-125.55,50.0,22.19
204,Saqqez,IR,17,1570073219,41,36.24,46.27,49.45,0.56
205,Narsaq,GL,100,1570073491,32,60.91,-46.05,51.8,32.21
206,Cidreira,BR,100,1570073492,89,-30.17,-50.22,63.87,10.22
207,Gagnoa,CI,87,1570073493,99,6.13,-5.95,69.63,1.61
208,Naryan-Mar,RU,100,1570073495,96,67.67,53.09,35.36,13.96
209,Ambon,FR,90,1570073286,87,47.55,-2.56,54.0,8.05
210,Hervey Bay,AU,0,1570073497,41,-25.3,152.85,78.01,16.11
211,Songea,TZ,75,1570073498,82,-10.68,35.65,68.0,4.41
212,Anton Lizardo,MX,40,1570073500,83,19.05,-95.98,80.6,3.36
213,Port-Gentil,GA,100,1570073501,75,-0.72,8.78,77.53,8.72
214,Ayan,IR,0,1570073502,38,38.23,44.7,51.8,2.24
215,Arraial do Cabo,BR,0,1570073441,84,-22.97,-42.02,69.41,26.8
216,Constitucion,MX,90,1570073505,87,23.99,-104.67,64.0,9.08
217,Katsuura,JP,75,1570073506,83,33.93,134.5,77.0,32.21
218,Riachao do Dantas,BR,41,1570073511,96,-11.07,-37.73,68.06,4.9
219,Waingapu,ID,1,1570073512,30,-9.65,120.26,89.03,17.25
220,Manama,AE,0,1570073514,58,25.33,56.02,87.8,8.05
221,Safranbolu,TR,13,1570073515,50,41.25,32.69,60.72,2.24
222,Carutapera,BR,1,1570073516,80,-1.2,-46.02,78.23,6.44
223,Tomislavgrad,BA,75,1570073517,93,43.71,17.23,57.2,1.12
224,Mangai,CD,97,1570073519,91,-4.07,19.59,69.61,1.12
225,Zhigansk,RU,23,1570073520,64,66.77,123.37,27.6,3.74
226,Karratha,AU,0,1570073521,14,-20.74,116.85,98.91,4.16
227,Pravda,BG,7,1570073523,100,43.16,25.69,55.4,2.24
228,Kargasok,RU,71,1570073524,74,59.06,80.87,42.29,11.97
229,Pevek,RU,100,1570073525,72,69.7,170.27,29.27,7.85
230,Kiknur,RU,97,1570073527,87,57.3,47.21,49.23,7.58
231,La Ronge,CA,5,1570073528,81,55.1,-105.3,41.0,9.17
232,Beatrice,US,90,1570073529,93,40.27,-96.75,54.0,8.05
233,Coquimbo,CL,100,1570073531,76,-29.95,-71.34,51.8,9.17
234,Soyo,AO,100,1570073532,84,-6.13,12.37,76.65,6.31
235,Port Shepstone,ZA,64,1570073533,42,-30.74,30.45,58.85,7.63
236,Dengfeng,CN,0,1570073534,36,34.46,113.03,81.54,7.34
237,Ushumun,RU,0,1570073536,31,52.78,126.54,42.79,9.42
238,Manggar,ID,100,1570073537,59,-2.88,108.27,86.12,5.95
239,Fulton,US,1,1570073539,78,38.85,-91.95,81.0,8.05
240,Broome,GB,1,1570073540,86,52.47,1.45,46.0,6.8
241,Nguruka,TZ,33,1570073541,80,-5.11,31.04,69.18,2.62
242,Krasnovka,RU,1,1570073542,75,48.37,40.26,51.07,7.27
243,Mareeba,AU,90,1570073544,58,-16.99,145.42,82.4,23.04
244,Taoudenni,ML,0,1570073545,11,22.68,-3.98,86.84,3.89
245,Qarqin,AF,0,1570073546,19,37.41,66.03,66.03,10.76
246,Wanning,AT,75,1570073547,87,48.64,13.53,46.99,11.41
247,Egvekinot,RU,100,1570073549,93,66.32,-179.17,29.42,2.48
248,Naze,NG,100,1570073550,98,5.43,7.07,72.33,4.47
249,Tapiramuta,BR,84,1570073551,87,-11.85,-40.79,66.03,6.71
250,Kama,JP,75,1570073553,65,33.54,130.74,86.0,17.22
251,Cayenne,GF,0,1570073554,83,4.94,-52.33,78.8,6.08
252,Flinders,AU,0,1570073555,15,-34.58,150.85,87.8,8.05
253,Nanortalik,GL,100,1570073557,75,60.14,-45.24,41.48,1.52
254,Northam,AU,0,1570073558,41,-31.65,116.67,75.2,10.29
255,Vicksburg,US,1,1570073559,94,32.35,-90.88,82.4,5.59
256,Geraldton,CA,90,1570073561,86,49.72,-86.95,32.0,2.24
257,Eyl,SO,12,1570073562,91,7.98,49.82,73.21,1.81
258,Dikson,RU,100,1570073563,70,73.51,80.55,26.52,24.36
259,Raudeberg,NO,95,1570073565,66,61.99,5.14,48.2,14.99
260,Fukue,JP,40,1570073566,61,35.03,136.69,82.99,18.34
261,Bajil,ES,86,1570073567,74,38.23,-2.07,48.0,1.99
262,Haines Junction,CA,19,1570073569,78,60.75,-137.51,34.92,2.86
263,King City,CA,75,1570073571,71,43.93,-79.54,53.01,23.04
264,Kawalu,ID,76,1570073572,54,-7.38,108.21,82.19,6.0
265,Pangnirtung,CA,0,1570073573,70,66.15,-65.72,23.26,3.91
266,Stuttgart,DE,0,1570073291,86,48.78,9.18,44.01,3.36
267,Codrington,AU,0,1570073576,28,-28.95,153.24,82.99,4.7
268,Chunskiy,RU,100,1570073577,44,56.08,99.63,42.92,8.66
269,Zeya,RU,0,1570073578,33,53.74,127.27,38.36,9.55
270,Deputatskiy,RU,100,1570073580,86,69.3,139.9,22.27,25.52
271,Nemuro,JP,75,1570073581,82,43.32,145.57,66.2,12.75
272,Fethiye,TR,0,1570073582,93,36.62,29.12,64.4,5.82
273,Saint-Philippe,CA,1,1570073583,86,45.36,-73.48,46.0,9.13
274,Soe,EE,100,1570073585,93,57.91,26.05,45.0,2.08
275,Santa Vitoria do Palmar,BR,83,1570073586,82,-33.52,-53.37,54.51,15.01
276,Quelimane,MZ,99,1570073587,90,-17.88,36.89,72.18,4.54
277,Sur,OM,0,1570073589,63,22.57,59.53,83.56,11.12
278,Bosaso,SO,61,1570073590,65,11.28,49.18,85.49,16.33
279,Gushikawa,JP,1,1570073592,70,26.35,127.87,87.8,6.93
280,Aksu,KZ,0,1570073593,69,52.04,76.93,39.2,4.47
281,Yamada,JP,75,1570073594,39,36.58,137.08,84.99,11.41
282,Prieska,ZA,0,1570073595,20,-29.67,22.74,55.53,12.17
283,Wainwright,CA,0,1570073503,93,52.84,-110.86,34.28,8.21
284,Pergine Valsugana,IT,40,1570073598,40,46.06,11.24,59.0,14.99
285,Salalah,OM,40,1570073599,83,17.01,54.1,78.8,4.7
286,Maunabo,PR,20,1570073601,88,18.01,-65.9,79.0,2.48
287,Mabaruma,GY,100,1570073602,95,8.2,-59.78,73.86,1.63
288,Walvis Bay,NA,90,1570073603,87,-22.95,14.51,57.2,8.05
289,Matam,SN,0,1570073605,88,15.66,-13.26,78.8,2.24
290,Itarema,BR,0,1570073606,81,-2.92,-39.92,75.05,9.22
291,Batemans Bay,AU,0,1570073607,37,-35.71,150.18,81.0,8.99
292,Tabou,CI,5,1570073609,96,4.42,-7.36,73.12,2.1
293,Hasaki,JP,75,1570073610,69,35.73,140.83,82.99,10.29
294,Baruun-Urt,MN,100,1570073611,63,46.68,113.28,38.25,18.9
295,Tasiilaq,GL,100,1570073613,60,65.61,-37.64,41.0,38.03
296,Thinadhoo,MV,87,1570073614,75,0.53,72.93,83.2,12.91
297,Syumsi,RU,100,1570073615,89,57.11,51.61,49.79,13.73
298,Valera,VE,41,1570073616,89,9.31,-70.61,69.92,4.08
299,Ustikolina,BA,75,1570073618,100,43.58,18.79,53.6,2.24
300,Vestmannaeyjar,IS,100,1570073619,75,63.44,-20.27,47.74,47.51
301,Damphu,BT,0,1570073620,63,27.07,90.11,71.64,3.09
302,Lamu,CN,100,1570073622,64,35.77,102.37,50.58,5.93
303,Twentynine Palms,US,1,1570073623,14,34.14,-116.05,73.99,1.03
304,Arman,RU,94,1570073624,71,59.7,150.17,32.28,4.47
305,Iralaya,HN,100,1570073626,87,15.0,-83.23,76.36,0.54
306,Denpasar,ID,20,1570073453,74,-8.65,115.22,84.2,10.29
307,Taksimo,RU,33,1570073628,47,56.36,114.84,30.41,3.76
308,Suntar,RU,100,1570073629,75,62.16,117.65,34.94,7.14
309,Tura,RU,100,1570073631,96,64.27,100.22,35.32,7.09
310,Katobu,ID,25,1570073632,41,-4.94,122.53,91.86,8.03
311,Westport,US,90,1570073524,82,41.14,-73.36,70.0,6.93
312,Belvidere,US,90,1570073634,93,42.26,-88.84,60.8,5.82
313,Lampa,CL,0,1570073636,57,-33.29,-70.87,48.2,8.05
314,Takoradi,GH,100,1570073637,96,4.89,-1.75,73.26,1.92
315,Aguimes,ES,0,1570073639,69,27.91,-15.45,80.01,14.99
316,Severodvinsk,RU,40,1570073640,77,64.56,39.82,33.8,6.71
317,Boyolangu,ID,0,1570073641,45,-8.09,111.9,87.41,6.38
318,Makakilo City,US,90,1570073488,78,21.35,-158.09,86.0,9.17
319,Talnakh,RU,75,1570073644,93,69.49,88.39,35.6,13.42
320,Umba,RU,0,1570073645,86,66.69,34.34,30.86,6.4
321,College,US,90,1570073646,100,64.86,-147.8,39.2,5.82
322,Waipawa,NZ,100,1570073647,59,-39.94,176.59,54.0,4.0
323,Yumen,CN,93,1570073649,22,40.29,97.04,56.54,17.94
324,Bestobe,KZ,85,1570073650,48,52.5,73.1,44.59,7.14
325,Kabare,RW,0,1570073651,94,-1.65,29.38,54.11,0.69
326,Athabasca,CA,0,1570073630,91,54.72,-113.29,35.57,4.76
327,Puerto Ayacucho,CO,40,1570073654,83,5.66,-67.63,80.6,0.83
328,Meulaboh,ID,98,1570073511,80,4.14,96.13,79.31,9.64
329,Klyuchi,RU,25,1570073656,57,52.25,79.17,43.74,2.95
330,Maiduguri,NG,100,1570073658,67,11.84,13.15,75.71,11.12
331,Saint-Pierre,FR,0,1570073659,74,48.95,4.24,37.4,2.24
332,Teya,MX,75,1570073660,83,21.05,-89.07,82.0,8.05
333,Nizwa,OM,0,1570073662,67,22.93,57.53,74.38,1.41
334,Kendari,ID,33,1570073663,51,-3.99,122.52,88.06,4.32
335,Tokur,RU,26,1570073664,49,53.13,132.9,40.49,4.74
336,Katherine,AU,0,1570073666,11,-14.47,132.26,96.8,17.22
337,Ferrol,ES,100,1570073667,100,43.48,-8.23,55.99,3.36
338,Trier,DE,75,1570073668,100,49.76,6.64,44.01,11.41
339,Lewistown,US,90,1570073670,100,40.39,-90.15,72.0,8.3
340,Samarai,PG,100,1570073671,92,-10.62,150.67,76.11,8.34
341,Kalmunai,LK,2,1570073672,65,7.42,81.82,83.56,5.21
342,Verkhnevilyuysk,RU,63,1570073673,72,63.45,120.31,33.75,4.76
343,Vila Velha,BR,0,1570073675,73,-3.71,-38.6,77.0,4.7
344,Nizhneangarsk,RU,70,1570073676,58,55.78,109.57,28.62,10.89
345,Poltavka,RU,3,1570073677,53,54.36,71.76,42.93,10.63
346,Amahai,ID,78,1570073678,76,-3.31,129.0,80.63,7.58
347,Sao Jose da Coroa Grande,BR,48,1570073680,92,-8.9,-35.15,70.71,4.12
348,Anchorage,US,90,1570073667,66,61.22,-149.89,50.0,1.72
349,Wajir,KE,0,1570073682,69,1.75,40.07,75.71,14.27
350,Alekseyevsk,RU,100,1570073683,92,57.84,108.35,33.14,12.55
351,Palmer,AU,20,1570073685,67,-34.85,139.16,73.99,16.11
352,Corcoran,US,1,1570073686,37,36.1,-119.56,68.0,4.7
353,Lima,PE,90,1570073495,88,-12.06,-77.04,62.6,10.29
354,Pankovka,RU,100,1570073689,88,58.5,31.2,43.35,6.58
355,Ornskoldsvik,SE,66,1570073690,74,63.29,18.72,39.2,11.41
356,Hovd,NO,90,1570073691,93,63.83,10.7,43.0,9.17
357,Buraydah,SA,0,1570073693,36,26.33,43.97,78.8,3.36
358,Maceio,BR,40,1570073694,94,-9.67,-35.74,69.8,2.24
359,Keffi,NG,75,1570073695,88,8.85,7.88,71.6,8.05
360,Mangaratiba,BR,0,1570073697,88,-22.96,-44.04,71.6,3.36
361,Seka,ET,29,1570073698,97,7.6,36.72,53.88,1.45
362,San Quintin,PH,46,1570073699,66,17.54,120.52,85.74,4.27
363,Yangambi,CD,100,1570073700,99,0.77,24.47,70.04,1.28
364,Kosh-Agach,RU,0,1570073702,36,49.99,88.66,30.62,3.87
365,Beloha,MG,100,1570073703,82,-25.17,45.06,69.97,10.89
366,Nogales,CL,0,1570073704,76,-32.73,-71.2,48.2,4.7
367,Ugoofaaru,MV,45,1570073705,71,5.67,73.0,83.27,7.36
368,Sao Felix do Xingu,BR,100,1570073707,96,-6.64,-51.99,69.97,1.07
369,Kutum,SD,78,1570073708,52,14.2,24.66,73.86,3.04
370,Shingu,JP,75,1570073709,69,33.72,135.99,80.6,19.46
371,Bowen,AU,40,1570073711,57,-20.01,148.25,77.0,23.04
372,Port Macquarie,AU,0,1570073543,29,-31.43,152.91,80.01,10.29
373,Opuwo,NA,15,1570073713,57,-18.06,13.84,53.55,1.34
374,Peleduy,RU,100,1570073714,90,59.63,112.75,31.85,11.86
375,Inhambane,MZ,0,1570073716,92,-23.87,35.38,58.11,3.11
376,Marshalltown,US,90,1570073717,100,42.04,-92.91,60.01,11.41
377,Burhaniye,TR,0,1570073718,87,39.51,26.98,71.6,10.42
378,Nerchinskiy Zavod,RU,0,1570073720,30,51.31,119.61,43.69,5.23
379,Izumo,JP,20,1570073721,48,35.37,132.75,87.8,19.46
380,Inuvik,CA,90,1570073722,93,68.36,-133.71,39.2,6.93
381,Margate,AU,0,1570073723,31,-43.03,147.26,82.0,10.29
382,Bermejo,AR,39,1570073725,62,-22.73,-64.34,56.72,2.91
383,Rancho Palos Verdes,US,5,1570073726,59,33.75,-118.37,69.8,5.82
384,Iwaki,JP,75,1570073727,53,37.05,140.89,79.0,12.75
385,Mill Creek,US,90,1570073729,100,40.44,-77.93,75.99,4.12
386,Navalmoral de la Mata,ES,100,1570073730,60,39.89,-5.54,57.0,1.01
387,Caravelas,BR,0,1570073731,78,-17.73,-39.27,69.81,7.87
388,Novyy Urengoy,RU,100,1570073526,93,66.08,76.63,46.1,13.38
389,Cabimas,VE,90,1570073734,76,10.39,-71.44,83.34,10.27
390,Kokkola,FI,0,1570073735,86,63.84,23.13,46.0,4.7
391,Barrancabermeja,CO,82,1570073737,98,7.07,-73.85,73.88,0.27
392,Souillac,FR,0,1570073738,87,45.6,-0.6,52.0,5.82
393,Yatou,CM,75,1570073739,100,3.63,9.81,75.2,3.36
394,Bandundu,CD,0,1570073740,88,-3.32,17.38,70.94,1.97
395,Manadhoo,MV,70,1570073510,74,5.77,73.38,82.75,9.48
396,Gat,SN,100,1570073743,100,14.69,-16.54,75.2,6.93
397,Brenham,US,1,1570073744,69,30.17,-96.4,82.4,3.36
398,Vanavara,RU,100,1570073745,97,60.35,102.28,36.51,7.09
399,Rodrigues Alves,BR,75,1570073747,100,-7.74,-72.65,73.4,2.24
400,Nhulunbuy,AU,75,1570073748,54,-12.18,136.78,84.2,17.22
401,Telica,HN,100,1570073749,99,14.72,-86.14,65.74,0.96
402,Rawson,AR,0,1570073751,23,-43.3,-65.11,48.33,7.43
403,Riyadh,SA,0,1570073752,26,24.63,46.72,78.8,3.36
404,Aklavik,CA,90,1570073753,93,68.22,-135.01,39.2,6.93
405,Road Town,VG,1,1570073754,70,18.42,-64.62,84.2,10.29
406,Sept-Iles,CA,75,1570073756,80,50.2,-66.38,35.6,8.05
407,Omsukchan,RU,0,1570073757,86,62.53,155.8,16.64,3.78
408,Atar,MR,0,1570073758,10,20.52,-13.05,93.35,8.68
409,Fort Nelson,CA,75,1570073760,81,58.81,-122.69,51.8,2.24
410,Sangar,RU,66,1570073761,55,63.92,127.47,31.13,10.22
411,Guimbal,PH,53,1570073762,59,10.66,122.32,88.29,1.92
412,Beni Suef,EG,0,1570073623,55,29.07,31.1,66.33,1.28
413,Phetchabun,TH,20,1570073765,70,16.42,101.16,86.0,3.36
414,Buta,CD,100,1570073766,99,2.79,24.73,69.03,2.44
415,Savyntsi,UA,0,1570073767,68,49.4,37.05,49.99,7.63
416,Champerico,MX,75,1570073769,94,16.38,-93.6,71.6,3.36
417,Buala,SB,43,1570073770,73,-8.15,159.59,82.53,9.28
418,Tolcsva,HU,90,1570073771,87,48.28,21.45,50.0,16.11
419,Labuhan,ID,0,1570073772,53,-2.54,115.51,91.07,1.77
420,Iskateley,RU,100,1570073774,96,67.68,53.15,35.36,13.96
421,Hamada,JP,40,1570073775,58,34.9,132.08,86.0,21.92
422,Mirabad,IR,70,1570073776,45,28.27,61.33,65.2,4.32
423,Necochea,AR,0,1570073593,67,-38.55,-58.74,42.01,1.99
424,Zhangye,CN,86,1570073779,29,38.94,100.46,54.65,5.95
425,Vostok,RU,100,1570073780,86,46.45,135.83,61.71,2.91
426,Callaguip,PH,40,1570073782,79,18.07,120.49,84.2,8.05
427,Togur,RU,1,1570073783,72,58.36,82.83,42.92,12.57
428,Vallenar,CL,66,1570073784,70,-28.58,-70.76,47.67,0.87
429,Kachiry,KZ,71,1570073786,50,53.07,76.1,43.92,7.85
430,Bluefield,US,1,1570073711,64,37.27,-81.22,73.4,3.36
431,Ca Mau,VN,16,1570073788,61,9.18,105.15,90.62,1.54
432,Dyersburg,US,1,1570073593,78,36.03,-89.39,78.8,5.68
433,Paamiut,GL,94,1570073791,52,61.99,-49.67,47.27,13.11
434,Hobyo,SO,100,1570073792,86,5.35,48.53,78.47,6.38
435,Boa Vista,BR,0,1570073794,66,2.82,-60.67,84.2,8.05
436,Lagoa,PT,0,1570073795,72,37.14,-8.45,61.0,3.36
437,Tiznit,MA,9,1570073796,81,29.7,-9.73,68.91,19.17
438,Almaty,KZ,20,1570073669,66,43.24,76.95,48.2,2.24
439,Miri,NG,89,1570073799,85,10.31,9.75,70.35,4.12
440,Swellendam,ZA,95,1570073800,87,-34.02,20.44,51.8,5.82
441,Pimenta Bueno,BR,39,1570073802,80,-11.68,-61.19,73.43,3.06
442,Alice Springs,AU,0,1570073803,7,-23.7,133.88,95.0,18.34
443,Arlit,NE,59,1570073804,12,18.74,7.39,86.53,10.09
444,Araouane,ML,24,1570073805,23,18.9,-3.53,91.01,4.65
445,Asahikawa,JP,75,1570073807,77,43.76,142.37,68.0,2.24
446,Liverpool,GB,0,1570073653,100,53.41,-2.98,43.0,5.82
447,Te Anau,NZ,8,1570073809,76,-45.41,167.72,43.98,9.17
448,Kamaishi,JP,75,1570073811,78,39.28,141.86,71.6,9.17
449,Bealanana,MG,44,1570073812,88,-14.54,48.75,59.87,7.2
450,Coahuayana,MX,100,1570073813,94,18.62,-100.35,70.58,3.11
451,Chernyshevskiy,RU,100,1570073814,92,63.01,112.47,32.33,11.56
452,Ostrovnoy,RU,93,1570073816,76,68.05,39.51,34.1,19.24
453,Bahia Blanca,AR,0,1570073817,65,-38.72,-62.27,42.9,11.45
454,Channel-Port aux Basques,CA,33,1570073818,64,47.57,-59.14,46.46,22.08
455,Klaksvik,FO,5,1570073820,81,62.23,-6.59,42.8,6.93
456,Tanout,NE,32,1570073821,20,14.97,8.88,89.41,9.17
457,Tomatlan,MX,100,1570073822,83,19.93,-105.25,78.99,3.4
458,Lagos,NG,20,1570073698,100,6.46,3.39,73.4,2.24
459,Weymouth,US,90,1570073825,76,42.22,-70.94,55.99,4.7
460,Uusikaupunki,FI,75,1570073826,80,60.8,21.41,41.0,10.29
461,Fairhope,US,1,1570073828,94,30.52,-87.9,82.0,4.03
462,Kozuchow,PL,40,1570073829,93,51.75,15.59,44.01,5.82
463,Khandyga,RU,91,1570073830,57,62.65,135.58,27.6,2.24
464,Olinda,AU,0,1570073832,18,-37.84,145.39,86.0,19.46
465,Conceicao do Araguaia,BR,0,1570073833,89,-8.26,-49.26,72.31,3.04
466,San Cristobal,HN,100,1570073834,95,14.68,-86.92,66.62,3.65
467,Neyshabur,IR,0,1570073836,62,36.21,58.79,50.15,3.49
468,Kalanguy,RU,0,1570073837,28,51.01,116.52,42.79,8.32
469,Pochutla,MX,100,1570073838,92,15.74,-96.47,73.99,3.8
470,Calama,CL,0,1570073840,40,-22.46,-68.93,53.6,21.92
471,Punta Alta,AR,90,1570073841,88,-27.46,-55.82,73.4,6.93
472,Chokurdakh,RU,97,1570073843,88,70.62,147.9,27.04,12.86
473,Boves,FR,0,1570073844,86,49.85,2.39,43.0,4.7
474,Marti,CU,75,1570073845,100,21.15,-77.45,75.2,6.93
475,Kieta,PG,100,1570073847,84,-6.22,155.63,78.52,5.1
476,Mehamn,NO,75,1570073848,74,71.03,27.85,37.4,16.11
477,Corinth,GR,20,1570073849,88,37.94,22.93,73.0,6.15
478,Goba,ET,12,1570073851,88,7.01,39.97,44.7,3.6
479,Houston,US,1,1570073061,78,29.76,-95.37,82.99,10.16
480,Namatanai,PG,69,1570073853,71,-3.66,152.44,81.63,5.91
481,Karsiyang,IN,40,1570073854,69,26.88,88.28,82.4,3.36
482,Guarapari,BR,75,1570073855,88,-20.67,-40.5,77.0,2.82
483,Nipawin,CA,1,1570073857,92,53.36,-104.02,30.2,2.24
484,Bell Ville,AR,3,1570073858,70,-32.63,-62.69,50.84,8.14
485,Padang,ID,97,1570073860,84,-0.92,100.36,78.34,14.23
486,Ottumwa,US,90,1570073861,93,41.02,-92.41,66.99,2.62
487,Burnie,AU,15,1570073862,30,-41.05,145.91,72.0,7.0
488,Toyooka,JP,75,1570073606,61,35.55,134.82,80.6,19.46
489,Jirkov,CZ,75,1570073864,93,50.5,13.45,46.99,13.87
490,Melipilla,CL,0,1570073866,87,-33.69,-71.21,48.2,4.7
491,Hofn,IS,100,1570073867,99,64.25,-15.21,31.31,13.85
492,Barra do Garcas,BR,61,1570073868,78,-15.89,-52.26,74.6,4.85
493,Okato,NZ,100,1570073870,76,-39.19,173.88,50.0,11.99
494,The Valley,AI,20,1570073871,78,18.22,-63.06,82.99,3.36
495,Hienghene,NC,94,1570073872,66,-20.68,164.93,66.3,6.51
496,Atbasar,KZ,98,1570073874,45,51.81,68.36,41.55,5.99
497,Oyama,JP,62,1570073875,50,36.31,139.8,87.01,3.51
498,Slave Lake,CA,1,1570073876,67,55.28,-114.77,46.4,6.93
499,Storm Lake,US,90,1570073761,100,42.64,-95.21,52.0,10.29
500,Alofi,NU,75,1570073879,74,-19.06,-169.92,82.4,6.93
501,Kolondieba,ML,100,1570073880,89,11.09,-6.89,73.62,8.23
502,Penarroya-Pueblonuevo,ES,100,1570073882,87,38.3,-5.27,60.01,3.36
503,Traunstein,DE,75,1570073883,81,47.87,12.64,45.0,1.12
504,Acajutla,SV,100,1570073818,81,13.59,-89.83,79.31,6.04
505,Erdenet,MN,0,1570073885,69,49.03,104.04,30.69,3.98
506,Benghazi,LY,0,1570073887,56,32.12,20.07,74.4,13.87
507,Vestmanna,FO,0,1570073888,81,62.16,-7.17,42.8,6.93
508,Shirokiy,RU,45,1570073889,86,53.87,39.17,48.0,1.01
509,Kaniama,CD,0,1570073891,86,-7.57,24.18,66.51,1.9
510,Hoi An,VN,20,1570073670,63,15.88,108.33,91.4,3.36
511,Doha,QA,1,1570073822,69,25.29,51.53,89.6,4.7
512,Harper,US,1,1570073894,60,30.3,-99.24,80.6,7.0
513,Biltine,TD,61,1570073895,63,14.53,20.93,82.21,8.1
514,Ko Samui,TH,20,1570073897,66,9.54,99.94,89.6,5.82
515,Kirakira,SB,27,1570073898,77,-10.46,161.92,80.84,6.89
516,Dhidhdhoo,MV,0,1570073899,72,6.88,73.1,82.62,7.23
517,El Angel,EC,100,1570073900,85,0.62,-77.93,55.95,3.69
518,Los Llanos de Aridane,ES,40,1570073902,88,28.66,-17.92,71.6,11.41
519,Batagay-Alyta,RU,100,1570073903,72,67.8,130.41,15.2,4.68
520,Agbor,NG,98,1570073904,99,6.26,6.15,71.66,2.08
521,Magaria,NE,53,1570073905,59,13.0,8.91,80.48,10.8
522,Hirara,JP,20,1570073907,66,24.8,125.28,86.0,8.05
523,Chagoda,RU,100,1570073908,95,59.16,35.33,41.69,3.36
524,Ruwi,OM,0,1570073909,52,23.6,58.55,91.4,9.17
525,Cafarnaum,BR,7,1570073910,86,-11.69,-41.47,65.4,10.25
526,Abha,SA,0,1570073912,45,18.22,42.5,62.6,4.7
527,Dawlatabad,AF,0,1570073913,21,36.41,64.91,58.97,1.81
528,Jutai,BR,1,1570073914,86,-1.71,-47.89,74.51,3.85
529,Chapleau,CA,58,1570073916,86,47.85,-83.4,32.21,6.82
530,Evanston,US,90,1570073804,87,42.04,-87.69,62.01,8.05
531,Sinazongwe,ZM,7,1570073646,83,-17.26,27.46,65.16,7.38
532,Koslan,RU,97,1570073919,86,63.46,48.9,35.03,11.77
533,Moose Factory,CA,20,1570073882,100,51.26,-80.61,30.2,3.36
534,Warmbad,DE,86,1570073922,87,50.67,13.08,46.99,14.99
535,Ojinaga,US,90,1570073923,88,29.56,-104.41,71.6,12.75
536,Mananjary,MG,100,1570073925,63,-19.16,46.8,66.87,7.65
537,Granja,BR,0,1570073926,83,-3.12,-40.83,70.4,4.92
538,Zaysan,KZ,0,1570073927,22,47.47,84.87,41.84,3.11
539,Harpanahalli,IN,99,1570073929,76,14.8,75.98,78.0,6.13
540,Saint-Georges,CA,41,1570073930,100,46.12,-70.67,39.0,1.68
541,Bakel,SN,100,1570073931,54,14.9,-12.46,84.12,6.55
542,Sorland,NO,20,1570073932,69,67.67,12.69,33.8,11.41
543,Chulman,RU,100,1570073934,76,56.84,124.9,30.35,11.1
544,Villa Carlos Paz,AR,0,1570073935,61,-31.42,-64.5,55.0,3.36
545,Hurricane,US,1,1570073936,10,37.18,-113.29,64.4,4.7
546,Jinsha,CN,40,1570073937,70,24.49,118.41,87.8,4.47
547,Salinopolis,BR,0,1570073939,79,-0.61,-47.36,81.2,18.43
548,Bilibino,RU,100,1570073940,89,68.06,166.44,13.81,5.37
549,Sakaiminato,JP,20,1570073941,48,35.55,133.23,87.8,19.46
